[
  {
    "id": 1,
    "name": "Еко-Мед",
    "category": "Їжа",
    "description": "Натуральний мед з Карпат",
    "location": { "lat": 48.847, "lng": 24.022 }
  },
  {
    "id": 2,
    "name": "Handmade Wood",
    "category": "Декор",
    "description": "Дерев’яні меблі ручної роботи",
    "location": { "lat": 49.8397, "lng": 24.0297 }
  },
  {
    "id": 3,
    "name": "Карпатський сир",
    "category": "Їжа",
    "description": "Крафтові сири з гірського молока",
    "location": { "lat": 48.625, "lng": 23.996 }
  },
  {
    "id": 4,
    "name": "ZeleniStyle",
    "category": "Декор",
    "description": "Живі стіни та еко-декор для дому",
    "location": { "lat": 50.4501, "lng": 30.5234 }
  },
  {
    "id": 5,
    "name": "Льон і Лоск",
    "category": "Одяг",
    "description": "Одяг з натурального льону ручної роботи",
    "location": { "lat": 49.5535, "lng": 25.5948 }
  },
  {
    "id": 6,
    "name": "Botanic Beauty",
    "category": "Косметика",
    "description": "Органічна косметика на травах",
    "location": { "lat": 50.9077, "lng": 34.7981 }
  },
  {
    "id": 7,
    "name": "KAVAro",
    "category": "Напої",
    "description": "Реміснича обсмажка кави",
    "location": { "lat": 49.9935, "lng": 36.2304 }
  },
  {
    "id": 8,
    "name": "Глиняне Сонце",
    "category": "Ремесла",
    "description": "Гончарні вироби з Поділля",
    "location": { "lat": 49.4197, "lng": 26.9936 }
  },
  {
    "id": 9,
    "name": "Дивосвіт",
    "category": "Декор",
    "description": "Авторські іграшки та декор для дітей",
    "location": { "lat": 50.2649, "lng": 28.6767 }
  },
  {
    "id": 10,
    "name": "Чайна Лавка",
    "category": "Напої",
    "description": "Трав’яні чаї з екологічно чистих регіонів",
    "location": { "lat": 48.9236, "lng": 24.7111 }
  },
  {
    "id": 11,
    "name": "Тепло рук",
    "category": "Одяг",
    "description": "В’язані речі з вовни українського виробництва",
    "location": { "lat": 48.6219, "lng": 22.2879 }
  }
]

