[
  {
    "id": 12,
    "name": "Сирна Хатинка",
    "category": "Домашній сир",
    "description": "Сир зі свіжого молока з ферми в Івано-Франківській області",
    "location": { "lat": 48.9226, "lng": 24.7111 }
  },
  {
    "id": 13,
    "name": "Карпатський Мед",
    "category": "Мед",
    "description": "Лісовий та гречаний мед із власної пасіки",
    "location": { "lat": 48.2654, "lng": 25.9342 }
  },
  {
    "id": 14,
    "name": "Горіховий Рай",
    "category": "Мигдаль",
    "description": "Свіжий український мигдаль із півдня країни",
    "location": { "lat": 46.6344, "lng": 32.6169 }
  },
  {
    "id": 15,
    "name": "Яблуневий сад",
    "category": "Яблука",
    "description": "Соковиті яблука з садів Житомирської області",
    "location": { "lat": 50.2549, "lng": 28.6647 }
  },
  {
    "id": 16,
    "name": "Абрикосовий світанок",
    "category": "Абрикоси",
    "description": "Солодкі абрикоси з домашньої плантації на Миколаївщині",
    "location": { "lat": 47.0503, "lng": 31.8574 }
  },
  {
    "id": 17,
    "name": "Лохинова ферма",
    "category": "Лохина",
    "description": "Натуральна лохина, вирощена без хімії",
    "location": { "lat": 50.5123, "lng": 25.5377 }
  }
]